{
  "type" : "FeatureCollection",
  "features" : [{"type":"Feature","id":1,"geometry":{"type":"Point","coordinates":[-90.427988556773528,38.675660221117163]},"properties":{"OBJECTID":1,"NOTES":"This is the road outside my house.","Type":"Main Street","Address":null,"Name":"Leisure Lane"}},{"type":"Feature","id":2,"geometry":{"type":"Point","coordinates":[-90.424544234514542,38.673613821478298]},"properties":{"OBJECTID":2,"NOTES":"This is the biggest street near our home.","Type":"Main Street","Address":null,"Name":"Olive Blvd"}},{"type":"Feature","id":3,"geometry":{"type":"Point","coordinates":[-90.423686828508451,38.673089780716943]},"properties":{"OBJECTID":3,"NOTES":"My dad goes here to get Thai food.","Type":"Restaurant","Address":null,"Name":"Thai Nivas"}},{"type":"Feature","id":4,"geometry":{"type":"Point","coordinates":[-90.428757159822197,38.672388583370001]},"properties":{"OBJECTID":4,"NOTES":"This is the closest fire station to my home.","Type":"Fire Department","Address":null,"Name":null}},{"type":"Feature","id":6,"geometry":{"type":"Point","coordinates":[-90.438850565675878,38.670305728719427]},"properties":{"OBJECTID":6,"NOTES":"This is a restaurant where I get chicken tenders from.","Type":"Restaurant","Address":null,"Name":"St. Louis Post Grill"}},{"type":"Feature","id":7,"geometry":{"type":"Point","coordinates":[-90.435381490339225,38.672876733372888]},"properties":{"OBJECTID":7,"NOTES":"This is the store where we get groceries.","Type":"Store","Address":null,"Name":"Dierbergs"}},{"type":"Feature","id":8,"geometry":{"type":"Point","coordinates":[-90.419861590026272,38.673419754470089]},"properties":{"OBJECTID":8,"NOTES":"This is a store where we get froyo.","Type":"Restaurant","Address":null,"Name":"Frozen Yogurt"}},{"type":"Feature","id":9,"geometry":{"type":"Point","coordinates":[-90.441990848635385,38.684271691836877]},"properties":{"OBJECTID":9,"NOTES":"This is the public school that my neighborhood friends go to.","Type":"School","Address":null,"Name":"Craig Elementary"}},{"type":"Feature","id":11,"geometry":{"type":"Point","coordinates":[-90.425379860866556,38.674035845552382]},"properties":{"OBJECTID":11,"NOTES":"I go here to get stuff with my friends.","Type":"Store","Address":null,"Name":"Gas Station"}}]
}